{
  "_note": "防汛 / 救災據點（依臺南市東區水災防災地圖圖例之設施類別整理，座標為東區示意位置）。type：eoc 指揮中心 / backup 備援中心 / pump 抽水站 / water 取水點 / supply 物資儲備點 / heli 直升機起降點。",
  "facilities": [
    { "id": "FF01", "type": "eoc",    "name": "東區災害應變中心", "lat": 22.9846, "lng": 120.2188 },
    { "id": "FF02", "type": "backup", "name": "備援中心（東光里活動中心）", "lat": 22.9966, "lng": 120.2394 },
    { "id": "FF03", "type": "pump",   "name": "竹溪抽水站", "lat": 22.9735, "lng": 120.2150 },
    { "id": "FF04", "type": "pump",   "name": "大同路抽水站", "lat": 22.9776, "lng": 120.2086 },
    { "id": "FF05", "type": "water",  "name": "巴克禮公園取水點", "lat": 22.9758, "lng": 120.2312 },
    { "id": "FF06", "type": "water",  "name": "臺南文化中心取水點", "lat": 22.9822, "lng": 120.2360 },
    { "id": "FF07", "type": "supply", "name": "復興國中物資儲備點", "lat": 22.9906, "lng": 120.2252 },
    { "id": "FF08", "type": "supply", "name": "崇明國中物資儲備點", "lat": 22.9762, "lng": 120.2382 },
    { "id": "FF09", "type": "heli",   "name": "巴克禮直升機起降點", "lat": 22.9745, "lng": 120.2298 }
  ]
}
